City,Latitude,Longitude,Max_Temp,Humidity,Cloudy,Wind,Country,Date
collie,-33.37,116.15,46.0,63.0,0.0,4.38,AU,1592659053.0
yulara,-25.24,130.99,53.6,44.0,0.0,8.05,AU,1592658971.0
westport,41.14,-73.36,75.0,83.0,1.0,4.7,US,1592659023.0
ahome,25.92,-109.18,72.0,90.0,25.0,3.0,MX,1592658971.0
cape town,-33.93,18.42,66.0,77.0,75.0,11.41,ZA,1592658972.0
mokshan,53.44,44.61,86.0,26.0,0.0,3.31,RU,1592659053.0
bodden town,19.28,-81.25,86.0,83.0,20.0,6.93,KY,1592659053.0
albany,42.6,-73.97,78.8,57.0,20.0,1.99,US,1592659054.0
punta arenas,-53.15,-70.92,37.0,80.0,40.0,9.17,CL,1592658972.0
busselton,-33.65,115.33,46.0,63.0,0.0,8.66,AU,1592659054.0
invermere,50.52,-116.04,57.43,64.0,58.0,2.84,CA,1592659054.0
vestmannaeyjar,63.44,-20.27,50.0,93.0,90.0,23.04,IS,1592659054.0
acarau,-2.89,-40.12,81.9,74.0,25.0,15.57,BR,1592659054.0
kaeo,-35.1,173.78,54.0,3.0,98.0,8.41,NZ,1592659054.0
severo-kurilsk,50.68,156.12,41.92,92.0,100.0,17.09,RU,1592659054.0
vestmanna,62.16,-7.17,55.4,87.0,59.0,10.29,FO,1592659054.0
vaini,-21.2,-175.2,73.4,83.0,20.0,6.93,TO,1592659055.0
longyearbyen,78.22,15.64,42.8,75.0,40.0,13.87,SJ,1592659055.0
hobart,-42.88,147.33,46.99,93.0,75.0,3.36,AU,1592658978.0
jamestown,42.1,-79.24,66.2,88.0,1.0,3.36,US,1592658974.0
thompson,55.74,-97.86,42.8,93.0,90.0,9.17,CA,1592658963.0
brownwood,31.71,-98.99,66.2,100.0,90.0,4.7,US,1592658974.0
kozhva,65.11,57.05,39.51,95.0,100.0,10.42,RU,1592659055.0
georgetown,5.41,100.34,84.2,79.0,20.0,4.7,MY,1592659055.0
bandarbeyla,9.49,50.81,93.7,38.0,98.0,22.24,SO,1592658975.0
esperance,-33.87,121.9,48.2,76.0,0.0,6.93,AU,1592659056.0
kloulklubed,7.04,134.26,78.8,94.0,75.0,9.73,PW,1592659056.0
nikolskoye,59.7,30.79,63.0,51.0,100.0,11.18,RU,1592659056.0
birao,10.28,22.79,92.44,41.0,99.0,4.5,CF,1592659056.0
ilulissat,69.22,-51.1,42.8,70.0,5.0,5.82,GL,1592658825.0
arraial do cabo,-22.97,-42.03,73.4,83.0,0.0,6.93,BR,1592659056.0
dikson,73.51,80.55,37.35,79.0,15.0,15.43,RU,1592659057.0
polovinnoye,54.79,65.99,70.83,50.0,26.0,12.62,RU,1592658976.0
saint-georges,12.06,-61.75,84.2,83.0,20.0,18.34,GD,1592659057.0
schroeder,-26.41,-49.07,73.99,81.0,0.0,2.82,BR,1592658976.0
orangeburg,33.49,-80.86,73.4,78.0,1.0,5.86,US,1592659057.0
khor,47.89,134.95,52.97,91.0,21.0,7.23,RU,1592659057.0
sobolevo,54.43,31.9,79.0,72.0,97.0,6.17,RU,1592658977.0
santa isabel,-23.32,-46.22,66.2,72.0,0.0,8.05,BR,1592658977.0
rikitea,-23.12,-134.97,75.63,82.0,100.0,17.92,PF,1592659058.0
butaritari,3.07,172.79,83.28,68.0,70.0,6.73,KI,1592659058.0
hofn,64.25,-15.21,50.0,93.0,90.0,4.7,IS,1592658977.0
dicabisagan,17.08,122.42,81.18,80.0,70.0,7.2,PH,1592659058.0
bambous virieux,-20.34,57.76,73.99,69.0,40.0,13.87,MU,1592659058.0
new norfolk,-42.78,147.06,45.0,85.0,100.0,2.06,AU,1592659058.0
kailua,21.4,-157.74,78.8,69.0,40.0,12.75,US,1592658977.0
bowen,-20.02,148.23,68.0,93.0,0.0,6.93,AU,1592659059.0
hualmay,-11.1,-77.61,63.16,80.0,67.0,6.13,PE,1592658978.0
budapest,47.5,19.04,66.99,77.0,75.0,12.75,HU,1592659059.0
urusha,54.05,122.9,48.76,95.0,60.0,4.56,RU,1592659059.0
nisia floresta,-6.09,-35.21,84.2,70.0,40.0,23.04,BR,1592659059.0
upernavik,72.79,-56.15,41.74,72.0,0.0,2.62,GL,1592659059.0
san juan,-31.54,-68.54,53.4,43.0,0.0,2.62,AR,1592659059.0
jiangmen,22.58,113.08,90.0,77.0,82.0,10.0,CN,1592659060.0
hermanus,-34.42,19.23,64.99,79.0,0.0,4.0,ZA,1592659060.0
vanimo,-2.67,141.3,80.06,82.0,97.0,4.56,PG,1592659060.0
bethel,41.37,-73.41,73.99,83.0,1.0,4.7,US,1592658824.0
ushuaia,-54.8,-68.3,33.8,86.0,75.0,4.7,AR,1592659060.0
kruisfontein,-34.0,24.73,71.87,40.0,14.0,6.15,ZA,1592659061.0
hilo,19.73,-155.09,71.6,83.0,20.0,5.82,US,1592658846.0
qaanaaq,77.48,-69.36,38.89,73.0,100.0,7.83,GL,1592659061.0
dudinka,69.41,86.18,57.2,93.0,40.0,11.18,RU,1592658845.0
blackfoot,43.19,-112.34,53.01,81.0,1.0,5.82,US,1592658852.0
tiksi,71.69,128.87,65.84,37.0,0.0,5.55,RU,1592659061.0
romitan,39.93,64.38,100.4,8.0,0.0,11.41,UZ,1592659061.0
fort nelson,58.81,-122.7,60.8,82.0,75.0,2.13,CA,1592658967.0
labrea,-7.26,-64.8,80.64,69.0,100.0,2.44,BR,1592659061.0
margate,51.38,1.39,69.01,65.0,17.0,5.01,GB,1592658981.0
dunedin,-45.87,170.5,43.0,94.0,93.0,3.0,NZ,1592659062.0
codrington,-38.27,141.97,48.49,89.0,100.0,9.57,AU,1592659062.0
bredasdorp,-34.53,20.04,69.8,60.0,3.0,3.6,ZA,1592658981.0
mattru,7.62,-11.83,80.89,84.0,64.0,1.99,SL,1592658981.0
bathsheba,13.22,-59.52,80.6,94.0,75.0,17.22,BB,1592659062.0
abha,18.22,42.51,84.2,17.0,40.0,17.22,SA,1592659062.0
castro,-24.79,-50.01,67.55,69.0,0.0,6.44,BR,1592658982.0
atuona,-9.8,-139.03,79.74,74.0,93.0,13.13,PF,1592658982.0
barrow,71.29,-156.79,32.0,94.0,90.0,11.41,US,1592659063.0
ituacu,-13.81,-41.3,71.37,76.0,98.0,7.4,BR,1592659063.0
flinders,-34.58,150.86,61.0,67.0,7.0,3.0,AU,1592659063.0
corinto,37.94,22.96,87.01,56.0,36.0,1.99,GR,1592659063.0
kysyl-syr,63.9,122.76,69.19,62.0,17.0,3.33,RU,1592658982.0
angoche,-16.23,39.91,76.8,64.0,99.0,13.29,MZ,1592659063.0
puerto ayora,-0.74,-90.35,69.01,96.0,100.0,1.01,EC,1592658983.0
kanuma,36.55,139.73,69.35,75.0,97.0,5.19,JP,1592659063.0
ribeira grande,38.52,-28.7,69.8,83.0,20.0,16.11,PT,1592659064.0
kapaa,22.08,-159.32,77.0,83.0,40.0,12.75,US,1592659064.0
barcelona,41.39,2.16,78.8,78.0,40.0,14.99,ES,1592658921.0
drabiv,49.96,32.15,78.73,69.0,54.0,12.15,UA,1592659039.0
tairua,-37.02,175.85,59.0,87.0,100.0,8.99,NZ,1592659064.0
cidreira,-30.18,-50.21,68.99,89.0,93.0,6.17,BR,1592659064.0
rawson,-43.3,-65.1,48.58,51.0,100.0,13.2,AR,1592659064.0
marshall,34.38,-86.33,73.99,78.0,1.0,1.1,US,1592658921.0
provideniya,64.38,-173.3,51.37,57.0,1.0,3.0,RU,1592659065.0
taltal,-25.4,-70.48,65.01,49.0,0.0,2.04,CL,1592659065.0
chuy,-33.7,-53.46,56.7,87.0,0.0,5.68,UY,1592659065.0
severodvinsk,64.56,39.83,53.6,54.0,75.0,8.95,RU,1592659065.0
acapulco,16.86,-99.89,78.8,88.0,75.0,2.24,MX,1592658985.0
khatanga,71.97,102.5,70.84,42.0,6.0,12.01,RU,1592659065.0
jaque,7.52,-78.17,80.67,77.0,77.0,2.37,PA,1592659066.0
vila,42.03,-8.16,75.0,56.0,0.0,10.0,PT,1592658985.0
baykit,61.67,96.37,63.1,65.0,100.0,6.91,RU,1592658985.0
tuatapere,-46.13,167.68,39.0,83.0,76.0,3.0,NZ,1592659066.0
pangnirtung,66.15,-65.71,43.07,64.0,2.0,2.08,CA,1592659066.0
mataura,-46.19,168.86,39.0,83.0,98.0,3.0,NZ,1592659066.0
el paso,31.76,-106.49,78.8,9.0,20.0,4.7,US,1592658890.0
norman wells,65.28,-126.83,62.6,88.0,75.0,10.29,CA,1592659067.0
avarua,-21.21,-159.78,71.6,68.0,66.0,6.93,CK,1592658986.0
chapada dos guimaraes,-15.46,-55.75,75.2,64.0,0.0,2.24,BR,1592659067.0
arezzo,43.47,11.87,80.01,39.0,31.0,4.0,IT,1592658986.0
eyl,7.98,49.82,94.96,33.0,0.0,25.66,SO,1592658986.0
poltavka,54.37,71.76,60.87,42.0,100.0,7.54,RU,1592659067.0
souillac,-20.52,57.52,73.4,69.0,40.0,13.87,MU,1592659067.0
san cristobal,7.77,-72.22,82.4,58.0,40.0,20.8,VE,1592659067.0
orotukan,62.27,151.7,56.03,61.0,6.0,3.71,RU,1592659067.0
dingle,11.0,122.67,80.1,77.0,0.0,3.67,PH,1592659067.0
kaitangata,-46.28,169.85,44.01,86.0,98.0,1.99,NZ,1592659068.0
douentza,15.0,-2.95,102.79,22.0,0.0,5.66,ML,1592659068.0
bima,-8.47,118.72,74.37,85.0,100.0,3.98,ID,1592659068.0
geraldton,-28.77,114.6,55.4,76.0,0.0,5.82,AU,1592659068.0
nianzishan,47.52,122.88,62.01,82.0,96.0,7.56,CN,1592659068.0
ulagan,50.63,87.96,54.79,77.0,83.0,6.76,RU,1592658988.0
udachnyy,66.42,112.4,68.0,49.0,40.0,2.24,RU,1592659068.0
ivanava,52.15,25.54,78.13,67.0,71.0,10.13,BY,1592658988.0
tasiilaq,65.61,-37.64,48.2,57.0,75.0,26.4,GL,1592659069.0
bluff,-46.6,168.33,39.0,83.0,86.0,3.0,NZ,1592658989.0
zielona gora,51.94,15.51,64.4,82.0,90.0,12.75,PL,1592659069.0
abu samrah,35.3,37.18,85.8,31.0,40.0,21.56,SY,1592659069.0
hithadhoo,-0.6,73.08,84.04,72.0,93.0,7.23,MV,1592659069.0
bengkulu,-3.8,102.27,79.2,83.0,77.0,3.04,ID,1592659069.0
saint george,37.1,-113.58,66.0,17.0,1.0,3.36,US,1592658989.0
lebu,-37.62,-73.65,52.83,87.0,100.0,20.42,CL,1592659069.0
san patricio,19.22,-104.7,73.4,83.0,75.0,6.93,MX,1592659069.0
mayo,38.89,-76.51,75.0,88.0,1.0,5.82,US,1592659070.0
yellowknife,62.46,-114.35,55.4,50.0,20.0,17.22,CA,1592659070.0
ufa,54.77,56.04,80.6,28.0,0.0,17.9,RU,1592659070.0
conceicao do araguaia,-8.26,-49.26,80.6,65.0,57.0,5.82,BR,1592658965.0
saint-philippe,-21.36,55.77,73.4,69.0,75.0,12.75,RE,1592659070.0
laguna,38.42,-121.42,59.0,87.0,1.0,6.93,US,1592659070.0
mehamn,71.04,27.85,47.35,68.0,0.0,9.95,NO,1592658991.0
port macquarie,-31.43,152.92,48.99,97.0,5.0,10.71,AU,1592658813.0
ilorin,8.5,4.55,87.6,56.0,57.0,3.15,NG,1592658930.0
cherskiy,68.75,161.3,71.26,36.0,0.0,5.06,RU,1592659071.0
isangel,-19.55,169.27,64.4,93.0,20.0,13.71,VU,1592659071.0
clinton,42.59,-82.92,78.8,65.0,75.0,4.7,US,1592659071.0
narsingi,18.03,78.43,87.01,62.0,75.0,8.05,IN,1592658992.0
jaisalmer,26.91,70.92,106.81,19.0,0.0,13.62,IN,1592659071.0
bud,39.45,-86.18,77.0,61.0,1.0,4.7,US,1592659071.0
srednekolymsk,67.45,153.68,74.7,32.0,45.0,6.62,RU,1592659072.0
koumac,-20.57,164.28,68.83,85.0,18.0,12.44,NC,1592659072.0
ancud,-41.87,-73.82,48.99,100.0,20.0,11.41,CL,1592659072.0
kirovskiy,45.09,133.51,54.7,92.0,98.0,1.83,RU,1592659072.0
verkhnetulomskiy,68.61,31.8,57.2,44.0,0.0,4.47,RU,1592659072.0
miraflores,19.22,-98.81,59.0,77.0,40.0,0.29,MX,1592659072.0
sola,-13.88,167.55,82.4,69.0,40.0,18.01,VU,1592659072.0
bethanien,-26.5,17.16,75.27,18.0,0.0,16.35,NA,1592659073.0
victoria,22.29,114.16,86.0,74.0,99.0,8.01,HK,1592658963.0
hobyo,5.35,48.53,84.07,59.0,4.0,30.74,SO,1592659073.0
bacolod,10.67,122.95,81.14,77.0,30.0,4.7,PH,1592659073.0
hohhot,40.81,111.65,77.0,36.0,8.0,4.47,CN,1592659073.0
belmonte,-15.86,-38.88,78.8,65.0,40.0,8.05,BR,1592658994.0
salug,8.11,122.78,80.26,82.0,100.0,7.34,PH,1592659073.0
axim,4.87,-2.24,81.95,72.0,50.0,9.73,GH,1592658994.0
gasa,31.5,34.47,81.0,65.0,40.0,13.87,PS,1592658994.0
saint-dizier,48.42,5.08,69.01,60.0,3.0,5.82,FR,1592659074.0
darhan,49.49,105.92,66.87,56.0,100.0,7.63,MN,1592659074.0
ambon,-3.7,128.18,84.0,88.0,96.0,3.0,ID,1592659074.0
carnarvon,-24.87,113.63,66.2,93.0,0.0,9.17,AU,1592659074.0
vostok,46.49,135.88,48.67,99.0,63.0,3.98,RU,1592659074.0
san policarpo,12.18,125.51,83.17,78.0,0.0,5.61,PH,1592659074.0
owasso,36.27,-95.85,72.0,88.0,90.0,4.7,US,1592658815.0
irituia,-1.77,-47.44,83.73,67.0,0.0,5.5,BR,1592658995.0
saldanha,-33.01,17.94,68.0,68.0,18.0,6.93,ZA,1592658996.0
pevek,69.7,170.31,45.07,60.0,9.0,6.85,RU,1592659075.0
richards bay,-28.78,32.04,73.56,54.0,0.0,11.65,ZA,1592659075.0
talaya,61.38,152.75,54.75,54.0,22.0,6.22,RU,1592659075.0
saint-pierre,-21.34,55.48,73.4,69.0,60.0,12.75,RE,1592659075.0
port hardy,50.7,-127.42,57.2,100.0,75.0,4.12,CA,1592659075.0
marawi,8.0,124.29,81.0,87.0,97.0,5.01,PH,1592659075.0
nouadhibou,20.93,-17.03,96.8,26.0,0.0,19.46,MR,1592659075.0
port alfred,-33.59,26.89,69.01,75.0,0.0,10.51,ZA,1592659076.0
sao filipe,14.9,-24.5,77.34,73.0,1.0,17.18,CV,1592659076.0
liepaja,56.54,21.04,80.6,61.0,18.0,2.24,LV,1592659076.0
imbituba,-28.24,-48.67,78.8,54.0,0.0,9.17,BR,1592659076.0
christchurch,-43.53,172.63,45.0,93.0,6.0,1.12,NZ,1592659076.0
olafsvik,64.89,-23.71,50.38,86.0,100.0,10.16,IS,1592659077.0
rocha,-34.48,-54.33,56.25,84.0,0.0,4.16,UY,1592659077.0
mpika,-11.83,31.45,70.7,39.0,38.0,6.22,ZM,1592659077.0
zhoucheng,35.91,116.31,78.26,53.0,0.0,6.78,CN,1592659077.0
yenotayevka,47.25,47.03,91.94,23.0,100.0,8.1,RU,1592659077.0
bolshaya rechka,51.95,104.74,69.8,52.0,40.0,2.24,RU,1592659077.0
puerto quijarro,-17.78,-57.77,80.38,49.0,0.0,6.78,BO,1592658998.0
dir,35.21,71.88,82.58,29.0,58.0,0.6,PK,1592659077.0
biak,-0.91,122.88,78.19,81.0,100.0,4.85,ID,1592658999.0
simbahan,6.3,120.58,85.21,70.0,100.0,3.56,PH,1592658999.0
leningradskiy,69.38,178.42,40.42,72.0,92.0,6.76,RU,1592659078.0
mount gambier,-37.83,140.77,46.4,93.0,75.0,6.93,AU,1592659078.0
krasnoselkup,65.7,82.47,49.41,82.0,100.0,14.2,RU,1592659078.0
lavrentiya,65.58,-171.0,44.51,72.0,0.0,12.59,RU,1592659078.0
luanda,-8.84,13.23,78.8,74.0,6.0,9.17,AO,1592658809.0
torbay,47.67,-52.73,45.0,100.0,90.0,10.29,CA,1592658999.0
sibu,2.3,111.82,78.8,94.0,40.0,0.45,MY,1592659078.0
pangody,65.85,74.49,56.32,44.0,36.0,10.25,RU,1592659079.0
san andres,12.58,-81.7,82.4,78.0,75.0,12.75,CO,1592659079.0
poum,-20.23,164.02,71.94,82.0,10.0,15.21,NC,1592659079.0
chokurdakh,70.63,147.92,78.3,34.0,2.0,6.46,RU,1592659000.0
kurilsk,45.23,147.88,48.67,95.0,100.0,4.9,RU,1592659079.0
tignere,7.37,12.65,76.91,71.0,40.0,4.0,CM,1592659079.0
san quintin,30.48,-115.95,62.02,81.0,100.0,8.37,MX,1592659001.0
vila franca do campo,37.72,-25.43,66.2,82.0,20.0,16.11,PT,1592659080.0
huarmey,-10.07,-78.15,64.27,78.0,46.0,5.57,PE,1592659080.0
molteno,-31.4,26.36,56.32,36.0,0.0,18.63,ZA,1592659080.0
atar,20.52,-13.05,109.83,9.0,0.0,15.77,MR,1592659080.0
maltahohe,-24.83,16.98,71.49,20.0,2.0,9.62,NA,1592659001.0
bambanglipuro,-7.95,110.28,78.71,82.0,100.0,13.8,ID,1592659002.0
shirokiy,49.76,129.52,59.59,72.0,100.0,12.26,RU,1592659081.0
haines junction,60.75,-137.51,53.8,58.0,100.0,1.36,CA,1592659081.0
yar-sale,66.83,70.83,53.76,47.0,90.0,19.86,RU,1592659081.0
noormarkku,61.59,21.87,77.0,53.0,100.0,11.41,FI,1592659081.0
fortuna,40.6,-124.16,55.0,93.0,60.0,1.01,US,1592659081.0
serro,-18.6,-43.38,68.59,78.0,58.0,4.94,BR,1592659081.0
lorengau,-2.02,147.27,81.91,74.0,0.0,2.66,PG,1592659003.0
ambanja,-13.68,48.45,77.0,84.0,75.0,2.24,MG,1592659003.0
khirkiya,22.17,76.86,82.2,76.0,100.0,4.85,IN,1592659082.0
tura,25.52,90.22,79.25,87.0,1.0,3.15,IN,1592659082.0
nanortalik,60.14,-45.24,39.76,81.0,100.0,12.93,GL,1592659082.0
gerash,27.67,54.14,109.4,16.0,20.0,9.17,IR,1592659082.0
poboru,44.67,24.5,81.0,47.0,20.0,14.99,RO,1592659082.0
mar del plata,-38.0,-57.56,53.01,70.0,100.0,4.7,AR,1592659037.0
kallithea,37.95,23.7,89.01,33.0,20.0,12.95,GR,1592659083.0
pringsewu,-5.36,104.97,74.97,92.0,0.0,1.83,ID,1592659083.0
constitucion,-35.33,-72.42,54.57,86.0,100.0,14.36,CL,1592659083.0
ivanovka,42.89,75.08,80.6,24.0,31.0,13.42,KG,1592659083.0
kharan,28.58,65.42,108.46,5.0,0.0,2.35,PK,1592659083.0
petatlan,17.52,-101.27,78.8,83.0,40.0,2.24,MX,1592659004.0
sechura,-5.56,-80.82,65.59,78.0,45.0,10.65,PE,1592659083.0
port elizabeth,-33.92,25.57,71.6,53.0,54.0,4.7,ZA,1592659083.0
cabo san lucas,22.89,-109.91,84.2,32.0,5.0,10.29,MX,1592659084.0
tevriz,57.51,72.4,56.1,63.0,99.0,8.75,RU,1592659084.0
naivasha,-0.72,36.44,64.0,80.0,99.0,6.98,KE,1592659084.0
mantua,45.17,10.78,84.0,41.0,36.0,8.05,IT,1592659084.0
nabire,-3.37,135.48,77.16,86.0,98.0,3.13,ID,1592659084.0
sur,22.57,59.53,96.01,45.0,96.0,16.28,OM,1592659084.0
barinas,8.62,-70.21,73.83,94.0,100.0,5.68,VE,1592659084.0
waipawa,-41.41,175.52,53.01,96.0,100.0,11.41,NZ,1592659084.0
svetlogorsk,52.63,29.73,76.37,78.0,100.0,7.31,BY,1592659085.0
lerwick,60.15,-1.15,59.0,100.0,75.0,11.41,GB,1592659026.0
tuktoyaktuk,69.45,-133.04,39.2,100.0,90.0,8.05,CA,1592659085.0
broome,42.25,-75.83,69.01,82.0,1.0,5.82,US,1592659085.0
ponta do sol,32.67,-17.1,73.4,64.0,20.0,14.99,PT,1592659006.0
nantucket,41.28,-70.1,68.0,88.0,1.0,12.75,US,1592658826.0
east london,-33.02,27.91,80.6,18.0,0.0,11.41,ZA,1592659085.0
bodmin,50.47,-4.72,66.2,59.0,84.0,12.75,GB,1592659007.0
lambarene,-0.7,10.24,84.13,63.0,86.0,6.13,GA,1592659007.0
naze,28.37,129.48,75.2,94.0,75.0,8.05,JP,1592659007.0
hamilton,39.18,-84.53,75.99,83.0,40.0,3.8,US,1592658844.0
pecos,31.42,-103.49,75.2,69.0,1.0,9.17,US,1592659086.0
alofi,-19.06,-169.92,75.2,78.0,100.0,8.05,NU,1592659007.0
katangli,51.71,143.23,41.27,96.0,100.0,8.34,RU,1592659086.0
colimes,-1.55,-80.02,75.2,78.0,75.0,2.24,EC,1592659086.0
muroto,33.28,134.15,72.16,76.0,100.0,4.5,JP,1592659086.0
katsuura,35.13,140.3,73.0,82.0,100.0,1.01,JP,1592659086.0
salta,-24.79,-65.41,55.4,66.0,0.0,2.24,AR,1592659008.0
kholtoson,50.3,103.31,56.05,81.0,100.0,2.57,RU,1592659087.0
rockport,28.02,-97.05,84.2,78.0,1.0,8.05,US,1592659087.0
tursunzoda,38.51,68.23,91.4,9.0,0.0,2.24,TJ,1592659009.0
luderitz,-26.65,15.16,80.6,24.0,0.0,8.05,NA,1592659087.0
mahebourg,-20.41,57.7,73.4,69.0,40.0,13.87,MU,1592659087.0
hay river,60.82,-115.8,62.6,67.0,20.0,9.17,CA,1592658967.0
hasaki,35.73,140.83,70.0,83.0,75.0,4.7,JP,1592659088.0
kavieng,-2.57,150.8,83.37,73.0,70.0,6.55,PG,1592659088.0
linda,39.13,-121.55,62.6,77.0,1.0,6.93,US,1592659088.0
anloga,5.79,0.9,86.0,70.0,40.0,11.41,GH,1592659088.0
yamada,39.47,141.95,59.63,87.0,91.0,3.18,JP,1592659088.0
airai,-8.93,125.41,58.14,100.0,36.0,4.21,TL,1592659088.0
busembatia,0.77,33.61,77.2,67.0,50.0,7.47,UG,1592659010.0
cedar city,37.68,-113.06,53.6,32.0,1.0,3.36,US,1592659088.0
verkhoyansk,67.54,133.38,77.58,35.0,0.0,2.62,RU,1592659088.0
taoudenni,22.68,-3.98,114.53,7.0,70.0,4.92,ML,1592659089.0
quatre cocos,-20.21,57.76,73.99,69.0,40.0,13.87,MU,1592659089.0
dhidhdhoo,6.88,73.1,84.24,76.0,100.0,15.05,MV,1592659089.0
san luis,-33.3,-66.34,56.17,45.0,11.0,2.93,AR,1592659089.0
gemena,3.25,19.77,88.68,47.0,41.0,3.11,CD,1592659089.0
clyde river,70.47,-68.59,33.8,66.0,20.0,11.41,CA,1592659089.0
wellesley,42.3,-71.29,80.6,69.0,1.0,5.82,US,1592659011.0
trairi,-3.28,-39.27,80.71,74.0,98.0,12.73,BR,1592659090.0
labuhan,-6.88,112.21,81.32,74.0,100.0,4.97,ID,1592659090.0
te anau,-45.42,167.72,36.55,90.0,64.0,1.68,NZ,1592659090.0
les cayes,18.2,-73.75,83.28,74.0,1.0,4.32,HT,1592659090.0
pacific grove,36.62,-121.92,54.0,93.0,74.0,3.4,US,1592658988.0
tara,56.89,74.37,56.7,60.0,73.0,9.4,RU,1592659090.0
pirgos,35.12,25.72,91.99,45.0,0.0,4.7,GR,1592659090.0
tessalit,20.2,1.01,109.08,7.0,0.0,9.84,ML,1592659091.0
sabang,5.89,95.32,83.97,77.0,100.0,11.88,ID,1592659091.0
guerrero negro,27.98,-114.06,60.89,91.0,15.0,10.69,MX,1592659091.0
chumikan,54.72,135.31,40.57,96.0,100.0,12.57,RU,1592659091.0
muscat,23.61,58.59,93.2,75.0,20.0,9.17,OM,1592658983.0
genhe,50.78,121.52,53.15,80.0,2.0,3.65,CN,1592659091.0
honiara,-9.43,159.95,78.8,94.0,40.0,2.24,SB,1592659013.0
portland,45.52,-122.68,64.99,68.0,75.0,3.53,US,1592659013.0
ulaanbaatar,47.91,106.88,69.8,43.0,40.0,13.42,MN,1592659091.0
iskateley,67.68,53.15,41.23,85.0,100.0,26.91,RU,1592659092.0
demyansk,57.64,32.47,70.39,70.0,100.0,9.82,RU,1592659092.0
pangai,-19.8,-174.35,77.0,69.0,20.0,14.99,TO,1592659092.0
tyrma,50.08,132.17,54.52,91.0,100.0,3.53,RU,1592659092.0
agua verde,22.9,-106.05,81.0,93.0,0.0,6.46,MX,1592659014.0
luganville,-15.53,167.17,75.2,94.0,75.0,4.7,VU,1592659092.0
ozernovskiy,51.5,156.52,44.8,80.0,100.0,8.05,RU,1592659092.0
tukrah,32.53,20.58,96.6,18.0,0.0,26.13,LY,1592659015.0
tornio,65.85,24.15,68.0,34.0,32.0,5.82,FI,1592659093.0
batagay-alyta,67.8,130.41,72.68,37.0,7.0,3.56,RU,1592659093.0
kota kinabalu,5.97,116.07,78.8,94.0,20.0,2.24,MY,1592659093.0
karatau,43.17,70.47,80.31,20.0,0.0,15.61,KZ,1592659093.0
neiafu,-18.65,-173.98,75.2,73.0,40.0,10.29,TO,1592659093.0
palauig,15.44,119.9,83.05,71.0,100.0,1.14,PH,1592659093.0
cap malheureux,-19.98,57.61,73.99,69.0,41.0,5.99,MU,1592659016.0
nishihara,26.18,127.76,84.2,88.0,75.0,16.11,JP,1592659094.0
tatawin,32.93,10.45,89.6,22.0,0.0,12.75,TN,1592659094.0
fairbanks,64.84,-147.72,52.0,100.0,1.0,2.42,US,1592659094.0
talnakh,69.49,88.4,57.2,93.0,40.0,11.18,RU,1592659016.0
whitehorse,60.72,-135.05,51.8,93.0,90.0,9.17,CA,1592659094.0
hovd,48.01,91.64,69.42,30.0,9.0,5.1,MN,1592658846.0
duncan,34.5,-97.96,66.99,93.0,1.0,4.7,US,1592659095.0
port augusta,-32.5,137.77,51.8,76.0,3.0,12.75,AU,1592659095.0
mandalgovi,45.76,106.27,66.74,59.0,100.0,47.18,MN,1592659095.0
anadyr,64.75,177.48,55.4,66.0,20.0,2.24,RU,1592659095.0
yenagoa,4.92,6.26,79.75,85.0,100.0,7.09,NG,1592659095.0
san jose,37.34,-121.89,57.99,87.0,40.0,5.82,US,1592658992.0
kamaishi,39.27,141.88,58.6,83.0,46.0,4.5,JP,1592659017.0
mezen,65.85,44.24,43.95,75.0,100.0,17.02,RU,1592659095.0
manta,-0.95,-80.73,75.2,88.0,90.0,3.36,EC,1592659095.0
kashi,39.45,75.98,84.2,13.0,40.0,8.95,CN,1592659018.0
danville,36.59,-79.39,66.99,93.0,90.0,3.36,US,1592659096.0
najran,17.49,44.13,102.2,11.0,89.0,4.7,SA,1592659096.0
narsaq,60.92,-46.05,48.2,59.0,75.0,2.24,GL,1592659019.0
comodoro rivadavia,-45.87,-67.5,44.6,52.0,100.0,9.17,AR,1592658901.0
mogadishu,2.04,45.34,84.2,66.0,20.0,19.46,SO,1592658983.0
husavik,66.04,-17.34,59.0,72.0,20.0,14.99,IS,1592659097.0
santa maria del oro,25.93,-105.37,69.15,54.0,0.0,2.24,MX,1592659097.0
siparia,10.13,-61.5,84.99,88.0,40.0,12.75,TT,1592659097.0
loandjili,-4.76,11.86,82.4,65.0,40.0,13.87,CG,1592659019.0
aklavik,68.22,-135.01,42.8,100.0,90.0,4.7,CA,1592659097.0
gambela,8.25,34.58,86.4,57.0,54.0,3.78,ET,1592659097.0
tallahassee,30.44,-84.28,77.0,78.0,20.0,2.62,US,1592659097.0
praya,14.92,-23.51,84.2,54.0,20.0,16.11,CV,1592659098.0
ati,13.22,18.34,103.48,16.0,10.0,2.13,TD,1592659098.0
ormara,25.21,64.64,86.05,80.0,0.0,16.13,PK,1592658924.0
henties bay,-22.12,14.28,81.0,29.0,0.0,14.61,NA,1592659098.0
qaqortoq,60.72,-46.03,48.2,65.0,75.0,2.24,GL,1592659021.0
veraval,20.9,70.37,86.68,76.0,50.0,16.98,IN,1592659098.0
oranjemund,-28.55,16.43,70.83,38.0,0.0,8.93,NA,1592659098.0
segou,13.43,-6.22,99.05,28.0,0.0,1.45,ML,1592659021.0
nome,64.5,-165.41,51.8,71.0,1.0,9.17,US,1592659099.0
kuryk,43.2,51.65,99.01,11.0,0.0,21.83,KZ,1592659099.0
praia da vitoria,38.73,-27.07,77.0,57.0,20.0,11.3,PT,1592659099.0
sitka,57.05,-135.33,51.8,93.0,90.0,9.17,US,1592659099.0
okhotsk,59.38,143.3,47.84,88.0,100.0,6.04,RU,1592659099.0
gamba,-2.65,10.0,76.08,83.0,100.0,7.31,GA,1592659099.0
kokstad,-30.55,29.42,67.28,24.0,0.0,2.82,ZA,1592659022.0
chekhov,55.14,37.47,77.0,69.0,75.0,4.47,RU,1592659100.0
aleksandrov gay,50.15,48.57,90.54,19.0,0.0,4.54,RU,1592659022.0
san salvo,42.04,14.73,73.0,52.0,6.0,1.99,IT,1592659100.0
magangue,9.24,-74.75,79.3,89.0,100.0,3.83,CO,1592659023.0
flin flon,54.77,-101.86,46.4,93.0,90.0,4.7,CA,1592659100.0
faanui,-16.48,-151.75,79.41,79.0,94.0,5.48,PF,1592659023.0
poitiers,46.58,0.33,72.0,53.0,68.0,8.05,FR,1592659023.0
sucua,-2.47,-78.17,64.4,100.0,90.0,4.7,EC,1592659101.0
mehran,33.12,46.16,86.0,7.0,0.0,13.87,IR,1592659101.0
half moon bay,37.46,-122.43,61.0,100.0,90.0,9.17,US,1592659101.0
the valley,18.22,-63.06,84.99,74.0,40.0,16.11,AI,1592659101.0
englewood,39.65,-104.99,55.4,66.0,20.0,6.93,US,1592659101.0
sorland,67.67,12.69,69.8,35.0,0.0,9.17,NO,1592659101.0
deputatskiy,69.3,139.9,69.46,42.0,0.0,3.13,RU,1592659101.0
khandyga,62.67,135.6,60.28,90.0,25.0,9.28,RU,1592659101.0
kerema,-7.96,145.78,78.15,88.0,98.0,10.27,PG,1592659024.0
sambava,-14.27,50.17,75.27,90.0,100.0,13.35,MG,1592659102.0
cabedelo,-6.98,-34.83,82.4,69.0,20.0,17.22,BR,1592659102.0
berlevag,70.86,29.09,46.38,72.0,0.0,9.04,NO,1592659102.0
guadalupe y calvo,26.1,-106.97,56.52,79.0,0.0,4.38,MX,1592659102.0
namibe,-15.2,12.15,87.8,45.0,0.0,17.22,AO,1592659102.0
ocampo,21.65,-101.5,56.19,90.0,0.0,4.59,MX,1592659102.0
nueve de julio,-35.44,-60.88,50.0,99.0,100.0,1.99,AR,1592659102.0
tilichiki,60.47,166.1,44.89,93.0,1.0,3.8,RU,1592659025.0
paso de los toros,-32.82,-56.52,56.53,89.0,72.0,9.24,UY,1592659103.0
college,64.86,-147.8,52.0,87.0,75.0,4.7,US,1592659025.0
polyarnyy,69.2,33.45,57.2,44.0,30.0,4.47,RU,1592659025.0
amapa,1.0,-52.0,81.82,71.0,36.0,3.96,BR,1592659103.0
ouargaye,11.5,0.06,94.95,31.0,87.0,6.2,BF,1592659103.0
rabat,33.99,-6.84,77.0,50.0,40.0,12.75,MA,1592658954.0
suicheng,33.9,117.93,75.61,68.0,100.0,6.06,CN,1592659104.0
sao joao da barra,-21.64,-41.05,77.0,78.0,0.0,4.7,BR,1592659104.0
moratuwa,6.77,79.88,84.2,83.0,40.0,10.29,LK,1592659104.0
penzance,50.12,-5.54,59.0,82.0,100.0,16.11,GB,1592659026.0
klaksvik,62.23,-6.59,55.4,87.0,63.0,10.29,FO,1592659104.0
carlagan,14.97,122.05,81.32,76.0,0.0,2.64,PH,1592659104.0
russell,32.35,-85.2,77.0,73.0,1.0,2.37,US,1592658968.0
mentougou,39.94,116.09,91.99,52.0,97.0,3.58,CN,1592659105.0
sompeta,18.93,84.6,85.26,75.0,100.0,3.47,IN,1592659027.0
evensk,61.95,159.23,50.63,84.0,0.0,1.16,RU,1592659105.0
tigzirt,36.89,4.12,78.89,49.0,0.0,11.18,DZ,1592659105.0
kirkuk,35.47,44.39,92.7,17.0,89.0,14.61,IQ,1592659105.0
cadillac,44.25,-85.4,71.6,60.0,1.0,6.89,US,1592658913.0
iqaluit,63.75,-68.51,39.2,80.0,90.0,6.93,CA,1592659105.0
kahului,20.89,-156.47,77.0,65.0,1.0,14.99,US,1592659105.0
gudalur,9.68,77.27,79.72,65.0,100.0,8.97,IN,1592659105.0
sorong,-0.88,131.25,79.75,83.0,51.0,5.14,ID,1592659105.0
chabahar,25.29,60.64,87.33,75.0,12.0,12.41,IR,1592659029.0
plainfield,40.62,-74.42,75.2,73.0,1.0,0.92,US,1592659029.0
dryden,49.78,-92.75,59.0,77.0,1.0,8.05,CA,1592659029.0
bonavista,48.65,-53.11,42.08,92.0,97.0,12.93,CA,1592659029.0
mangrol,21.12,70.12,86.94,76.0,44.0,17.56,IN,1592659106.0
havre-saint-pierre,50.23,-63.6,57.2,76.0,90.0,4.7,CA,1592659106.0
ajaccio,42.0,8.92,75.2,69.0,0.0,16.11,FR,1592659106.0
severnyy,50.68,36.55,84.2,48.0,0.0,6.71,RU,1592659107.0
lucknow,26.85,80.92,87.8,70.0,75.0,9.17,IN,1592658921.0
pilar,-9.6,-35.96,80.6,74.0,75.0,19.46,BR,1592659072.0
katsina,12.99,7.6,96.24,30.0,35.0,8.41,NG,1592659107.0
mount isa,-20.73,139.5,59.0,54.0,0.0,1.12,AU,1592659107.0
forssa,60.81,23.62,81.0,39.0,0.0,3.0,FI,1592659107.0
mansehra,34.33,73.2,90.52,26.0,0.0,6.58,PK,1592659030.0
do gonbadan,30.36,50.8,104.0,10.0,0.0,11.41,IR,1592659030.0
troitskoye,52.98,84.68,54.45,87.0,100.0,5.59,RU,1592659031.0
yumen,40.28,97.2,85.32,14.0,100.0,18.03,CN,1592659108.0
ginir,7.13,40.7,71.53,68.0,76.0,6.04,ET,1592659031.0
tulsipur,28.13,82.3,79.0,93.0,100.0,3.0,NP,1592659108.0
kodiak,57.79,-152.41,50.0,81.0,90.0,9.17,US,1592659108.0
teya,60.38,92.63,60.84,41.0,45.0,5.26,RU,1592659108.0
bontang,0.13,117.5,81.45,78.0,0.0,5.01,ID,1592659108.0
bonthe,7.53,-12.51,81.46,78.0,56.0,3.83,SL,1592659032.0
vuktyl,63.86,57.31,40.24,94.0,100.0,15.48,RU,1592659032.0
san buenaventura,27.08,-101.53,77.0,69.0,20.0,4.7,MX,1592659109.0
ivdel,60.69,60.42,53.73,44.0,0.0,14.43,RU,1592659032.0
eureka,40.8,-124.16,55.99,100.0,32.0,2.13,US,1592659109.0
waingapu,-9.66,120.26,77.07,74.0,55.0,13.31,ID,1592659109.0
maler kotla,30.52,75.88,111.18,10.0,2.0,11.43,IN,1592659109.0
vila velha,-20.33,-40.29,78.01,78.0,0.0,5.82,BR,1592659109.0
okahandja,-21.98,16.92,68.0,18.0,0.0,4.7,NA,1592659033.0
morondava,-20.28,44.28,74.68,57.0,99.0,10.76,MG,1592659033.0
puri,19.8,85.85,87.8,79.0,75.0,12.75,IN,1592659110.0
oxapampa,-10.58,-75.4,61.95,58.0,10.0,1.95,PE,1592659110.0
grand gaube,-20.01,57.66,73.99,69.0,58.0,5.99,MU,1592659110.0
nador,35.17,-2.93,82.4,65.0,0.0,5.82,MA,1592658905.0
halifax,44.65,-63.57,80.6,57.0,5.0,10.29,CA,1592658931.0
havelock,34.88,-76.9,77.0,83.0,75.0,8.05,US,1592659080.0
porto velho,-8.76,-63.9,78.8,83.0,0.0,3.36,BR,1592659034.0
buraydah,26.33,43.98,102.2,17.0,0.0,5.82,SA,1592659111.0
robertsport,6.75,-11.37,77.83,86.0,36.0,8.39,LR,1592659111.0
inhambane,-23.86,35.38,77.0,65.0,40.0,9.17,MZ,1592659111.0
beidao,34.57,105.89,73.24,66.0,98.0,5.3,CN,1592659111.0
celestun,20.87,-90.4,79.02,84.0,0.0,10.29,MX,1592659111.0
los cedrales,-25.65,-54.7,73.4,73.0,0.0,3.36,PY,1592659112.0
grand-lahou,5.14,-5.02,81.61,74.0,37.0,7.45,CI,1592659112.0
pimenta bueno,-11.67,-61.19,78.8,66.0,100.0,2.19,BR,1592659035.0
miri,4.41,114.01,82.4,88.0,75.0,6.93,MY,1592659112.0
uttaradit,17.67,100.5,89.01,37.0,56.0,1.36,TH,1592659112.0
tual,-5.67,132.75,80.62,80.0,73.0,21.61,ID,1592659112.0
yarmouth,41.71,-70.23,73.4,78.0,1.0,9.17,US,1592659112.0
farafangana,-22.82,47.83,65.57,88.0,100.0,5.46,MG,1592659113.0
lingao,19.91,109.69,85.33,75.0,0.0,0.81,CN,1592659113.0
luziania,-16.25,-47.95,68.0,82.0,40.0,8.05,BR,1592659113.0
salalah,17.02,54.09,87.8,74.0,20.0,5.82,OM,1592659036.0
kang,-23.68,22.79,68.63,28.0,0.0,6.22,BW,1592659113.0
lyskovo,56.03,45.04,70.47,76.0,60.0,9.26,RU,1592659036.0
ibanda,-2.8,32.47,86.0,37.0,20.0,20.8,TZ,1592659113.0
verkhnyaya toyma,62.23,45.0,52.38,55.0,100.0,9.69,RU,1592659113.0
lagos,6.58,3.75,86.0,74.0,75.0,5.82,NG,1592659114.0
mao,39.89,4.27,73.4,78.0,75.0,8.05,ES,1592659114.0
shihezi,44.3,86.03,87.15,14.0,7.0,7.7,CN,1592658927.0
cam ranh,11.92,109.16,87.8,70.0,40.0,11.41,VN,1592658863.0
savonlinna,61.87,28.88,68.0,42.0,0.0,8.05,FI,1592659114.0
yhu,-25.05,-55.92,72.97,66.0,0.0,8.3,PY,1592659115.0
fuerte olimpo,-21.04,-57.87,81.23,49.0,0.0,12.66,PY,1592659115.0
salekhard,66.53,66.6,49.57,81.0,100.0,12.28,RU,1592659115.0
mayumba,-3.43,10.66,77.18,80.0,95.0,8.37,GA,1592659026.0
sidrolandia,-20.93,-54.96,75.2,53.0,0.0,12.75,BR,1592659115.0
garden city,42.33,-83.33,80.6,69.0,40.0,4.7,US,1592659115.0
port blair,11.67,92.75,83.62,82.0,96.0,11.32,IN,1592659115.0
kualakapuas,-3.01,114.39,73.85,98.0,100.0,2.33,ID,1592659116.0
olinda,-8.01,-34.86,84.2,66.0,40.0,16.11,BR,1592659116.0
piedade,-23.71,-47.43,67.06,69.0,0.0,5.73,BR,1592659038.0
shingu,33.73,135.98,68.13,89.0,91.0,3.69,JP,1592659116.0
sao sebastiao,-23.76,-45.41,79.47,54.0,0.0,1.81,BR,1592659116.0
blonie,52.2,20.62,79.0,63.0,53.0,5.57,PL,1592659116.0
tucuman,-26.82,-65.22,50.0,81.0,75.0,6.93,AR,1592659116.0
kavaratti,10.57,72.64,84.07,76.0,100.0,17.74,IN,1592658853.0
tomaszow mazowiecki,51.53,20.01,73.0,79.0,92.0,1.01,PL,1592659117.0
pisco,-13.7,-76.22,60.01,87.0,90.0,5.82,PE,1592659117.0
vadnagar,23.78,72.63,99.64,36.0,77.0,15.1,IN,1592659117.0
rongcheng,30.63,117.85,69.53,93.0,100.0,4.7,CN,1592659039.0
manzanares,39.0,-3.37,89.6,17.0,0.0,8.05,ES,1592659117.0
varhaug,58.61,5.65,60.8,87.0,75.0,5.82,NO,1592659117.0
zarate,-34.1,-59.03,51.01,83.0,100.0,11.01,AR,1592659040.0
berdigestyakh,62.1,126.7,65.68,64.0,48.0,3.24,RU,1592659118.0
padang,-0.95,100.35,78.76,80.0,100.0,6.87,ID,1592659040.0
garissa,-0.45,39.64,93.29,30.0,0.0,24.27,KE,1592659118.0
teknaf,20.86,92.31,82.26,84.0,100.0,9.19,BD,1592659118.0
puerto escondido,15.85,-97.07,78.8,78.0,90.0,4.43,MX,1592659041.0
la macarena,2.18,-73.78,75.25,91.0,69.0,2.01,CO,1592659119.0
jabinyanah,35.03,10.91,91.4,27.0,0.0,14.99,TN,1592659041.0
tagusao,9.19,117.81,83.16,73.0,84.0,2.8,PH,1592659119.0
zyryanka,65.75,150.85,73.35,42.0,0.0,10.0,RU,1592659119.0
teluk nibung,3.0,99.82,79.36,86.0,36.0,6.26,ID,1592659041.0
paidha,2.42,30.99,73.31,74.0,74.0,1.59,UG,1592659119.0
la rioja,42.25,-2.5,82.4,30.0,0.0,6.93,ES,1592659041.0
progreso,21.28,-89.67,84.99,94.0,75.0,4.7,MX,1592659119.0
kjollefjord,70.95,27.35,46.2,72.0,0.0,5.68,NO,1592659042.0
astana,51.18,71.45,64.4,31.0,10.0,6.71,KZ,1592659120.0
limbang,4.75,115.0,78.8,94.0,75.0,3.36,MY,1592659042.0
loreto,22.27,-101.97,63.16,75.0,0.0,4.79,MX,1592659042.0
mundo nuevo,18.7,-95.5,79.21,81.0,0.0,2.55,MX,1592659120.0
almeirim,-1.52,-52.58,80.82,77.0,0.0,4.54,BR,1592659120.0
banjar,-8.19,114.97,82.4,94.0,40.0,18.34,ID,1592659120.0
umm bab,25.21,50.81,102.2,35.0,1.0,12.75,QA,1592659121.0
otake,34.2,132.22,71.6,68.0,40.0,5.82,JP,1592659121.0
kannangad,12.31,75.11,82.4,88.0,75.0,4.7,IN,1592659121.0
ixtapa,20.7,-105.2,75.2,88.0,5.0,2.21,MX,1592659121.0
kremenki,54.88,37.13,80.6,61.0,29.0,6.71,RU,1592659121.0
wielun,51.22,18.57,66.0,100.0,100.0,11.16,PL,1592659121.0
jardim,-21.48,-56.14,75.06,57.0,0.0,7.05,BR,1592659122.0
aksha,50.28,113.29,57.43,77.0,79.0,4.0,RU,1592659044.0
niksar,40.59,36.95,72.93,62.0,90.0,5.44,TR,1592659122.0
lagoa,39.05,-27.98,65.37,90.0,2.0,20.92,PT,1592659044.0
avera,33.19,-82.53,73.4,100.0,1.0,8.05,US,1592659122.0
lisakovsk,52.54,62.49,76.12,29.0,0.0,17.52,KZ,1592659044.0
palora,-1.7,-77.93,64.4,100.0,90.0,3.36,EC,1592659122.0
samur,41.83,48.49,86.49,25.0,0.0,7.11,RU,1592659045.0
sisimiut,66.94,-53.67,41.04,72.0,71.0,6.73,GL,1592659123.0
kindu,-2.95,25.95,90.46,41.0,57.0,1.77,CD,1592659123.0
cortez,37.35,-108.59,52.0,34.0,1.0,4.7,US,1592659045.0
chaohu,31.6,117.87,71.6,100.0,40.0,11.18,CN,1592659045.0
puerto asis,0.51,-76.5,71.46,98.0,100.0,1.23,CO,1592659123.0
lansing,42.73,-84.56,77.0,61.0,1.0,8.05,US,1592658890.0
necochea,-38.55,-58.74,43.0,85.0,100.0,1.99,AR,1592659045.0
butembo,0.15,29.28,67.15,89.0,28.0,2.42,CD,1592659124.0
saskylakh,71.92,114.08,77.7,39.0,100.0,3.78,RU,1592659046.0
brae,60.4,-1.35,59.0,87.0,75.0,12.75,GB,1592659124.0
payo,-3.75,103.64,75.04,95.0,100.0,2.17,ID,1592659124.0
alyangula,-13.85,136.42,71.6,88.0,0.0,12.57,AU,1592659124.0
methoni,36.82,21.7,79.0,53.0,75.0,4.7,GR,1592659124.0
puerto del rosario,28.5,-13.86,77.0,65.0,40.0,17.22,ES,1592659124.0
iwanai,42.97,140.51,49.51,89.0,36.0,3.44,JP,1592659125.0
inuvik,68.35,-133.72,42.8,100.0,90.0,4.7,CA,1592659046.0
seydi,39.48,62.91,100.96,7.0,0.0,13.22,TM,1592659125.0
port keats,-14.25,129.55,76.06,57.0,45.0,6.17,AU,1592659125.0
saint-augustin,51.23,-58.65,57.24,58.0,0.0,4.05,CA,1592659125.0
hami,42.8,93.45,87.4,16.0,4.0,12.5,CN,1592659125.0
jinchang,38.5,102.17,85.62,19.0,65.0,6.55,CN,1592659125.0
nara,34.69,135.8,69.01,69.0,100.0,3.98,JP,1592658901.0
esil,51.96,66.4,70.03,28.0,1.0,12.71,KZ,1592659126.0
grindavik,63.84,-22.43,53.6,81.0,75.0,27.51,IS,1592659126.0
ciudad real,39.0,-4.0,89.01,21.0,0.0,3.0,ES,1592659126.0
santa maria,-29.68,-53.81,78.8,61.0,20.0,5.82,BR,1592659048.0
hirata,35.43,132.82,68.0,82.0,40.0,16.11,JP,1592659126.0
karratha,-20.74,116.85,71.94,57.0,0.0,4.81,AU,1592659126.0
opuwo,-18.06,13.84,75.34,21.0,32.0,6.91,NA,1592659127.0
sault sainte marie,46.52,-84.33,69.8,68.0,1.0,3.36,CA,1592658963.0
chateauroux,46.82,1.7,69.8,49.0,35.0,9.17,FR,1592659127.0
yokadouma,3.52,15.05,79.97,85.0,39.0,2.19,CM,1592659127.0
ilo,-17.64,-71.34,63.34,72.0,55.0,3.74,PE,1592659049.0
lazaro cardenas,17.96,-102.2,77.16,71.0,40.0,4.47,MX,1592659127.0
sabha,27.04,14.43,105.87,7.0,0.0,7.07,LY,1592659049.0
anzhero-sudzhensk,56.08,86.03,55.4,58.0,40.0,2.24,RU,1592659127.0
sao jose da coroa grande,-8.9,-35.15,80.6,70.0,48.0,16.26,BR,1592659049.0
galle,6.04,80.22,82.63,82.0,93.0,13.91,LK,1592658928.0
abnub,27.27,31.15,96.8,28.0,0.0,18.34,EG,1592659049.0
bartica,6.4,-58.62,80.6,88.0,20.0,2.24,GY,1592659049.0
havre,49.58,0.33,73.99,60.0,83.0,5.82,FR,1592659050.0
yerbogachen,61.28,108.01,66.18,66.0,95.0,2.95,RU,1592659128.0
marystown,47.17,-55.15,50.61,83.0,94.0,14.7,CA,1592659050.0
bjorkelangen,59.88,11.57,82.99,57.0,100.0,8.01,NO,1592659128.0
matara,5.95,80.54,82.36,80.0,100.0,12.71,LK,1592659128.0
